,ID,Name,Zipcode,Latitude,Longitude,Price,Rating,IsGlutenFree
0,2nwnLkMe96YH4DNHsoEmKA,Mr. V's Bar and Grill,90639,33.9019866,-118.029034,$$,4.0,0.0
1,d1rOjpw_ScApyZ0rZjfMaw,Heritage Café,90639,33.9056014340604,-118.016183614251,$,4.0,0.0
2,3K7Fe3NRqRS3pUV9VshvBA,The Talon,90639,33.905231,-118.017396,$,4.0,0.0
3,CeJR0A30k-vPqB--ILHJAg,Blackstone Cafe,90639,33.903443,-118.016569,NA,3.0,0.0
4,vthaVCgPengHFyHBuYXyqw,Café Biola,90639,33.9068907728395,-118.014494063863,$,3.0,0.0
