,Unnamed: 0,ID,Name,Zipcode,Latitude,Longitude,Price,Rating
0,0,5Q1r2PLfZKAsSh9Sc0hL4g,Los Tinos Mexican Restaurant,98118,47.53674,-122.26992,$$,4.5
1,1,S1KsT_zM29mlVAgk1WaNzg,Chew-e-Core,98118,47.5425148010254,-122.268997192383,,5.0
2,2,vcUN3Fg7bBgKkVdeTMUv1g,Café Avole,98118,47.542606353759794,-122.272621154785,$,4.5
3,3,IsWM7BrvfZgZfZnC22_64w,Island Soul Rum Bar & Soul Shack,98118,47.55812,-122.28544,$$,4.0
4,4,fN0cjzRI7_yQtjKHZGEuLw,Redwing Cafe,98118,47.51956,-122.26138999999999,$,4.5
5,5,TUZ8bJufEb_DmzvIOVVutA,Super Six,98118,47.55728,-122.28556,$$,4.0
6,6,MwNRxjTtRYINJlDJgB_abw,Beach Bakery,98118,47.5316740647409,-122.269916529708,$,4.5
7,7,xRHV0DWLCTj1-dXMqcxxmg,Bang Bang Kitchen,98118,47.5368950382344,-122.279720306396,$$,3.5
8,8,4ol3Sn6gw-fNQvBIniU1Zw,Columbia City Farmers Market,98118,47.5591430664062,-122.28675079345699,$$,4.0
9,9,VA4pB-l76sunIqCFFP-6lg,Geraldine's Counter,98118,47.558000799999995,-122.28485259999998,$$,4.0
10,10,34sx5mdLPuOj6oKyWr1lXA,Columbia City Ale House,98118,47.55738,-122.28447,$$,4.0
11,11,_vHliOzgT-n1aMo0NrPNtQ,Taproot Cafe & Bar,98118,47.5575523,-122.2846261,$$,4.5
12,12,JC3rQWUEtbfptZplVYLCcw,Jude's Old Town,98118,47.52,-122.26136000000001,$$,4.5
13,13,TrGbVh2q5LmLnaPyVUEUIA,Tutta Bella Neapolitan Pizzeria - Columbia City,98118,47.55720520019529,-122.28443145751999,$$,4.0
14,14,LlknJk1Ah9F1LsiohykL6A,Sunset Cafe,98118,47.52994,-122.27022,$$,4.5
15,15,Ce6kgS-0Hxx5sLOdTxdFLQ,Both Ways Cafe,98118,47.56429,-122.27093300000001,$$,4.0
16,16,Z4OV66d7bUZIh0WcjUPKUw,Big Chickie,98118,47.552170000000004,-122.27784,$$,4.0
17,17,adqg7PQIuQAR6axKFS5xVQ,Huong Que Deli and Cafe,98118,47.53820794390899,-122.281971817722,$,4.0
18,18,HUO8TzLPcDGSGloWREXL8w,Canton Noodle House,98118,47.547109999999996,-122.28498,$,4.0
19,19,llfD3aYaUoEn5Z0AH8fYZg,Columbia City Bakery,98118,47.55824359331739,-122.285413749692,$,4.0
20,20,A_9ON3_AnKAHMSj9TEgH8w,The Hummingbird Saloon,98118,47.5559746886603,-122.284058572686,$$,4.0
21,21,PUaX4P59uKimpmWiRIOfbg,Empire Espresso,98118,47.558520639995095,-122.28425779999999,$,4.5
22,22,HK0V0vH_pCGCi5bqhfNp1w,Hoang Lan,98118,47.538089899999996,-122.28215,$,4.0
23,23,kOjruVktEQ1Dz48l69fURg,Raconteur,98118,47.55571,-122.2706,$$,3.5
24,24,npuNF0vaDznmCaim4IBVMg,Huong Duong,98118,47.537775,-122.281089,$,4.5
25,25,IyIg8h-DvOv6utEsnqBndg,Full Tilt Ice Cream,98118,47.55598,-122.28408999999999,$,4.5
26,26,QiSQO8jWR-hmDiEuPBl5IA,Lottie's Lounge,98118,47.55771,-122.2847,$$,4.0
27,27,KMrr9hYyrK3J_V8lmeLQvA,La Medusa,98118,47.55843,-122.28555,$$$,4.0
28,28,D_pc5BWCJf654wUSsnMCsQ,Kezira Cafe,98118,47.55612,-122.28337140000002,$$,4.5
29,29,2NjoOglK8bFyP4n6OOb-QQ,Flying Squirrel Pizza Co,98118,47.56429,-122.27102,$$,4.0
30,30,MARpjcuJ3XgHPFH7ZdUz4w,The Stonehouse Café,98118,47.51634,-122.25482,$$,3.5
31,31,5JRxGetpcPIqsfVUTmyUSg,Poke To The Max- Seattle,98118,47.55401,-122.28031999999999,$$,4.0
32,32,ZT_F3mTeB6QEE5Tk9H8pRw,Wabi-Sabi Sushi Bar & Restaurant,98118,47.55754,-122.28522,$$,3.5
33,33,ABJb2NI6ty03Ty4gRvEu5w,Rainier Restaurant,98118,47.54529829999999,-122.2850226,$$,3.5
34,34,hLoPPj_18x0WCXl6ZdkpXw,MOD Pizza,98118,47.56922,-122.28983000000001,,3.5
35,35,ei4QN48Lqq6CnrKmuBQYyQ,Spice Room,98118,47.55754,-122.28522,$$,3.0
36,36,HW25QVXf7jd42kuvP1ikzw,PCC Community Markets - Columbia City,98118,47.5587749,-122.2879531,$$,4.0
37,37,DeWwoABF0mCr2KNqJBKC4g,Starbucks,98118,47.558763,-122.285322,$$,3.5
38,38,oDWN097qf1j02ADde3eACA,Bent Burgers,98118,47.55507,-122.26953999999999,$$,3.5
39,39,qRLYW1m0crSYYarTYESRDw,Safeway,98118,47.52095,-122.26825,$$,2.5
40,40,1wSAGqI5s96POLLH9yzfOA,Starbucks,98118,47.569219,-122.288214,$,3.0
41,41,TEXKyywuXsFayp5yWrgeIQ,Rookies Sports Bar and Grill,98118,47.5579286964199,-122.28421971201901,$$,4.0
42,42,_C6No1KWLFe3Gln-vmVBgA,Safeway,98118,47.53747,-122.28307,$$,1.5
0,0,UzZEHFp_gypHMFIwLxPpQA,C & C Pizza,19559,40.492053553462,-76.18446975946429,$,4.0
0,0,1t_fur2VeQ_F9kNMemwP6w,Cookies 4 Everyone,77478,29.62357,-95.60271999999999,$$,5.0
1,1,NyqbbpcH3ULwCsLi8mQG1Q,BlendIn Coffee Club,77478,29.619800529997697,-95.6296475976706,$$,4.0
2,2,7SF0RUDqNcZ_dfmlhK7Ncw,Cafe Goo Goo Yen,77478,29.601340000000004,-95.60824000000001,$,3.5
3,3,Jpt1t_MZLrSjw715ImCGcw,Gigi's Cupcakes of Sugarland,77478,29.6011630917287,-95.62194469299091,$$,3.0
4,4,szDhLIRgsWrHilWUTSUJiw,RC's Tex-Mex Kitchen,77478,29.6341521752968,-95.6199470200293,$$,4.0
5,5,aeO0VdynS0q7raJsxki5Mg,Nothing Bundt Cakes,77478,29.601585600000003,-95.6293065,$$,4.5
6,6,6whhj6_uPFIjzFBO6xoZ0Q,Schlotzsky's,77478,29.605258785191698,-95.6138331438924,$,4.0
7,7,P9G1nGxAAp_i986MjrX20w,Pizza 101,77478,29.6038317644667,-95.6111121235828,$$,3.5
8,8,rINfcJk17NNnO5UuBkacKg,Japaneiro's,77478,29.5972571,-95.6214201,$$,4.0
9,9,1MiJ8EeNyEs2haMu5I3B3g,Kublai Khan Stir-Fry,77478,29.6008226,-95.6208214,$$,3.5
10,10,MfScZvAePDkYHlGimdJKjA,Freebirds World Burrito,77478,29.6051149389536,-95.61362206935878,$,3.5
11,11,8xka38wRE7L4RM0sNML6Zw,Pacific Coast Tacos,77478,29.602585853997603,-95.619712772579,$$,3.5
12,12,-tmHVOW0gBoJ8cKsWGI4KA,Gepetto's Pizza,77478,29.599632263183604,-95.6121292114258,$,4.0
13,13,yOOWAHQnFgytuu3rZCHZ5A,Jason's Deli,77478,29.604925,-95.61285446990591,$,3.5
14,14,51rW6XQ6MTlo0xGxRnW94w,Torchy's Tacos,77478,29.600757,-95.6213,$,3.5
15,15,84wwd6yQtUuYTncZMvEs1A,BJ's Restaurant & Brewhouse,77478,29.59822,-95.62015799999999,$$,3.0
16,16,Pc_-Lz44u8GyyeD0XAHHpA,Azuma on the Lake,77478,29.6008226,-95.6208214,$$,3.5
17,17,sAS1yIlFvQA40-af8xfpRw,Panda Garden,77478,29.6349089984613,-95.620055438237,$,4.0
18,18,f2gtSJktKcKW3uMg5fuyRg,Panda Express,77478,29.602690000000003,-95.6329499,$,3.0
19,19,a8dP7IMMF48wFRYikQ_1cw,Churrascos Sugar Land,77478,29.6028408,-95.621382,$$$,4.0
20,20,HvU60COMxPB3Z2H45y2RwA,Cheddar's Scratch Kitchen,77478,29.606270000000002,-95.64090999999999,$$,3.0
21,21,N0EHjUDooc-mOOkLn2e96g,Veritas Steak and Seafood,77478,29.602196000000003,-95.62206,$$$,3.5
22,22,egmNNzOZxQY_aqt_5bLOVQ,Denny's,77478,29.601682104608997,-95.6331217288971,$,2.5
23,23,y5nqZTr2fvP-hQUr8QiOyw,Chuck E. Cheese's,77478,29.600579999999997,-95.61853,$$,3.0
24,24,rBU80fkjEzJJNMwa8QrYCw,Carrabba's Italian Grill,77478,29.59729,-95.61766,$$,3.0
0,0,b_AhBSJkaYJl8FgvgbiVKQ,Boerner Restaurant,53130,42.9364224847863,-88.03164697193421,$$,5.0
1,1,rIiCcWUqitCWRk31nMDfFg,Ann's Italian Restaurant,53130,42.935876,-88.04939499999999,$$,4.0
2,2,UvzMMOUuXl4pYbt828tsUg,9th Slice Pizza,53130,42.942209999999996,-88.04697,$$,4.0
3,3,8xJ-PcK6JF4xP1WmKbvu4A,Tanpopo Ramen & Sushi Restaurant,53130,42.95003,-88.04881,$$,4.0
4,4,m8v9G5QhaERapMQyKoc4JA,Taj Mahal,53130,42.9510695,-88.0478379,$$,4.0
5,5,e6kKQa03jGQfglPxdh8tQQ,Starbucks,53130,42.938871999999996,-88.047785,$$,3.5
0,0,u8UjdNWvk96knvahkuZiSQ,Chik'n & Mi,40206,38.258596000000004,-85.702409,$$,4.5
1,1,Jc5FCvNQAAhPQX_KJZOfBQ,Apocalypse Brew Works,40206,38.256596897959206,-85.72023510932921,$,4.5
2,2,a17XPH0VtCRjyyOhNj1vpA,The Silver Dollar,40206,38.25716,-85.71663000000001,$$,4.0
3,3,gXPrfBmt1uWSSusXw_FfEQ,Lupo,40206,38.25946,-85.72223000000001,$$,4.0
4,4,3zM4r293wDg1tksq05kCDQ,Con Huevos,40206,38.25369,-85.70156,$$,4.5
5,5,0Kec4LNOE_tSLg_cmhfmiA,North End Cafe,40206,38.257383000000004,-85.71860600000001,$$,4.0
6,6,Y8OsM-ID5dAQK5CGHh2GWg,Heine Brothers' Coffee - Crescent Hill,40206,38.2542724609375,-85.69334411621091,$,4.0
7,7,00wVFrhJDKzDnXL6hQUalA,Smok'N Cantina,40206,38.25219,-85.70014,$,4.0
8,8,i_G9vksYwNkcIBUZLiiJNA,Vint,40206,38.2536,-85.70311,$,4.5
9,9,MI7ruZqJbhDWJ9PmsROMig,DiFabio's Casapela,40206,38.25354,-85.70278,$$,4.0
10,10,yp1g6-e7EMZmOmNfDNbbsw,Varanese,40206,38.25392532348629,-85.7081604003906,$$$,4.0
11,11,dJ0UVZjRGZ1LSqK6Jp90og,Mirin,40206,38.254709999999996,-85.70965,$$,4.0
12,12,uIseS-mYSBVD7_6SYkt-Qg,Time 4 Thai,40206,38.2534232717543,-85.7057147032217,$$,4.0
13,13,X5qemNkH2vDqIRKX3UEWqQ,Butchertown Pizza Hall,40206,38.2563,-85.72793,$,4.0
14,14,AKGF6Z0MyNBqmQTev96KfA,Porcini,40206,38.254709999999996,-85.69207,$$$,4.0
15,15,_5E8oCoFMGAjHt8p-A9MqQ,Hilltop Tavern,40206,38.25654,-85.71665,$,4.0
16,16,tMOWuQPAshtf--r2W1ConA,El Mundo,40206,38.2537117004395,-85.701286315918,$$,4.0
17,17,6lLx8Km4Mji5oZ1QgKRzDg,Butchertown Grocery,40206,38.25586,-85.73078000000001,$$$,4.5
18,18,ApjYgqbAh162LeeNybIn9w,Comfy Cow,40206,38.253643,-85.7054672,$,4.5
19,19,pz0Mt2UBPVcRV8bL7PnYdQ,Sweet Surrender Dessert Cafe,40206,38.25643,-85.71651999999999,$$,4.0
20,20,lJVjW9gheIpIzBUnvmeqmA,The Irish Rover,40206,38.2536828764985,-85.7025048603756,$$,4.0
21,21,TgcDKmGwgmtlSZkrM2Tf8A,J. Gumbo's,40206,38.25434,-85.70786,$,4.0
22,22,V_At7qrfEQlHvPwOn6GsGA,Le Moo,40206,38.24517,-85.7035,$$$,4.0
23,23,E7FmivhycJMFb8dASdXRgg,Lexie Lu's,40206,38.25875,-85.72654,$,3.0
24,24,3mGYHWDcYt-7OCgVfXPE4g,Crescent Hill Craft House,40206,38.2542915,-85.69461820000001,$$,4.0
25,25,FoPleAhKrOxlhtbaTiNHJQ,Game,40206,38.245869899999995,-85.70468000000001,$$,4.0
26,26,JkzgSIDgBEf7_jr759d-Lg,The Grape Leaf,40206,38.25369,-85.70576,$$,4.0
0,0,IiikXuyvIXeiCCeN7GlQuA,Slope & Hatch,81601,39.547934000000005,-107.325185,$$,4.5
1,1,-19NTfeH65JWvY4rZR0otg,Bluebird Cafe,81601,39.546800299999994,-107.32461509999999,$,4.0
2,2,GLWS-8zc7X1rQ39HppQtkQ,The Pullman,81601,39.547708354255,-107.32391727730699,$$,4.5
3,3,zgm3-91oSrZWU5dvT9gSMg,Grind,81601,39.547686999999996,-107.325065,$$,3.5
4,4,MmkXWNxMFAx925cfNh8WnA,CO Ranch House,81601,39.5476573793484,-107.324485818024,$$,4.5
5,5,lKJdsqpAr_ScRhLA5cGuVg,Daily Bread,81601,39.546909,-107.32511000000001,$$,4.5
6,6,_vfXQj28_yXfQwQWWunapw,The Lost Cajun - Glenwood Springs,81601,39.547564,-107.325051,$$,4.0
7,7,K-L16Pa2gLBgXIm0kbIsXg,Native Son,81601,39.546079999999996,-107.32511000000001,$$,4.5
8,8,Amz-oKjoKV341KXVsrEtdQ,Riviera Supper Club & Piano Bar,81601,39.5477044094243,-107.32443109325399,$$,4.0
9,9,CoF-upiHg8qs-1FyRuQEBQ,Masala & Curry,81601,39.5469185101908,-107.32340061789,$$,4.5
10,10,lqvtwY1GIz93S2asz1ZVaQ,Glenwood Canyon Brewing,81601,39.547655999999996,-107.323172,$$,4.0
11,11,NhArSFnhPdm9esBscbh3gA,Juicy Lucy's Steakhouse,81601,39.54765287402721,-107.324237823486,$$,3.5
12,12,cKqDxeWB7xY3B4fsEKqcxw,Smoke Modern BBQ,81601,39.547350099999996,-107.3249449,$$,4.0
13,13,IaVllQfly5zCsCGOdsT8hQ,River Blend Coffee House,81601,39.547622853266,-107.323231146428,$,4.5
14,14,hfQgYsTACe4bU3nSS3pkIA,Rocky Mountain Pizza,81601,39.5467512309551,-107.325582951307,$$,4.5
15,15,NDX6v-UXDd-cGssq6a1x0w,The Italian Underground Restaurant,81601,39.547406,-107.325052,$$,3.5
16,16,dFhF1_2jWuZxO3bZZLC0aA,Deja Brew Coffee & Tea,81601,39.542515,-107.32521100000001,$,4.5
17,17,_9p5eDEVrBy3Pe9LqdOLHg,Rosi's Little Bavarian,81601,39.55154,-107.32786999999999,$$,3.5
18,18,-WEEAKTYW9QL38yWgpFCNQ,Sacred Grounds,81601,39.547012,-107.325103,$,3.0
0,0,WgM-qwpgvw2pkHt5jv13tQ,Krumville Bake Shop,11206,40.6998241,-73.9480982,$$,5.0
1,1,1mp7uP6Kz_Zz4UClVfnjFQ,Testo,11206,40.708324,-73.946988,$$,4.5
2,2,NWHrF-8HC7yIKMXop6n-0Q,Bushwick Grind,11206,40.70162,-73.94440999999999,$,5.0
3,3,t-tx9YJhKHZrzIn4DKziuQ,983-Bushwick's Living Room,11206,40.703087,-73.933403,$$,4.0
4,4,FhXjAc6nKLf414KxYujUHw,Roberta's,11206,40.705043534338,-73.93357123374001,$$,4.0
5,5,3gqKLANaXNsHZnPDjKrcTg,Win Son,11206,40.70747,-73.94339000000001,$$,4.5
6,6,fNU4Mf7c--x71glNT9PHug,Hartbreakers,11206,40.7017552430266,-73.9226628918423,,4.0
7,7,5GQ5rre-_Wr-98ddR4tnQg,Steve & Andy's Organics,11206,40.699610899999996,-73.94792209999999,$$,5.0
8,8,u_3TLN0u6LyOL01vdjFOug,Champs Diner,11206,40.7084397372605,-73.9407808520115,$$,4.0
9,9,VrVmqcmRXoe3EMwer_ZRcw,Brooklyn Mac,11206,40.70755,-73.94223000000001,$$,3.0
10,10,yOc5CZ5VxHGqj96RUuZCMA,Dun-Well Doughnuts,11206,40.707743,-73.940202,$$,4.0
11,11,OrDUF3q9WNttIslLXKx0Aw,Concrete,11206,40.6977,-73.9368,$$,4.5
12,12,R-TRmWuK1nBGRB7iq0XphA,Nam Nam,11206,40.70728,-73.94509000000001,$,4.5
13,13,P3Yh0xVKUwy4SSGQqwArLA,Bagock Fried Chicken & Doughnuts,11206,40.70755,-73.94223000000001,,4.0
14,14,tmJEARh32neUqBDXpWZR1w,Central Cafe,11206,40.700222,-73.929427,$,4.0
15,15,Y7aK8zAWCnCncYfU9PqhRQ,Mini Melanie,11206,40.6998241,-73.9480982,$$,4.5
16,16,d8QUxd7xfKS4-SUk-uPX4g,Newtown,11206,40.7091391,-73.93722679999999,$,4.5
17,17,Ivj6Ui02moXsEkc0yAUQug,Red Table Catering,11206,40.7115468,-73.94689749999999,,5.0
18,18,1RRD6Ub4QEW9ZeyaBMx5jQ,Mountain Province,11206,40.7075228032172,-73.9503787374344,$,4.5
19,19,DCmw4cNrV-JZM6CGVB6DfQ,Vegan Shop Up,11206,40.705468597594496,-73.9328064747926,$$,4.5
20,20,M6uMYAfGywJiVNswIH35PA,Bake Shop,11206,40.703323,-73.932899,$$,4.0
21,21,8gAP3L0_v4YsGy7sdJGK7A,Azure,11206,40.707609999999995,-73.9417,$$,4.5
22,22,Eurr6tUSl5s_7F51jUm-PQ,Hell Phone,11206,40.70426,-73.93419,$$,3.5
23,23,cYHziFZtg6h76kYsCkn1MQ,Food Bazaar Supermarket,11206,40.696624,-73.936311,$,3.0
24,24,RWphHqDoGZfd7bDTYHD8eA,Warma Cafe,11206,40.7102149116587,-73.948802947998,$,3.5
25,25,TcllxDfvOcv13ztyYalx6g,Jessi's Coffee Shop,11206,40.70828,-73.93961,$,4.5
26,26,-zzMDQkhZzrnBUdrfpG3Ng,Ange Noir Cafe,11206,40.70426,-73.93419,$,4.0
27,27,HZzpdR29lu_ptz65eRIRJA,L Mo's Market,11206,40.705529999999996,-73.93178,$$$,4.0
28,28,v0vBSvG0hRPBoYyK6dlaAw,Emblem,11206,40.708428999999995,-73.943698,$$,4.5
29,29,3dGWHRbrh9V8Dl-qLwCUYw,Leaf,11206,40.69717,-73.9345,,2.5
30,30,FvyhJRPCth2_1pmXlBbTGA,Pine Box Rock Shop,11206,40.70528,-73.93267,$$,4.0
31,31,fLQ3HZeUrnNUwN64fg0jZg,Kettlebell Kitchen,11206,40.7145500183105,-74.00714111328129,$,3.5
32,32,zHTV6Y2RjhIZXuTfIK_GbQ,Get Fed NYC,11206,40.6999,-73.94819,$$,4.5
33,33,IHE2GRNR61QIAap1VfA7Gg,Sweet Dames Artisan Confections,11206,40.6999408012536,-73.94738070666791,,3.5
34,34,HVUSm1c3vOUfIjy9xGyEEQ,Food Story Natural Market,11206,40.7049098,-73.9331767,$$,4.0
35,35,qR6vC-y7o_ts-s-dqg4h1w,Chinacity Restaurant,11206,40.6974,-73.93626,,3.5
36,36,z6WBXksrh0FQXYCPr2nnFg,Amituofo Vegan Cuisine,11206,40.70381,-73.933159,$$,4.5
37,37,QahWQMupt8ImBgPxwHP4yw,Butcher Block,11206,40.70203,-73.943634,$$,2.0
38,38,9UwdnKB3LFEZRfnhgtux9A,Khims Millenium Market IV,11206,40.7072399,-73.9399434,$$$,3.0
39,39,DlLYddNASED5fcmZzu9dOw,Koda Restaurant & Lounge,11206,40.703128,-73.933319,$$,4.0
40,40,W_xw8xkI6-Vjogkf-lb1dQ,Healthy Choice Kitchen,11206,40.708203000000005,-73.943629,$,4.0
41,41,JXsHJfBAKZT0fG8XkA9Kzw,Sweet Science,11206,40.7063841819763,-73.9431119710207,$$,3.5
42,42,OMVBLvy-szMzAtpG_ZZaMw,Demi Monde,11206,40.70427,-73.93361999999999,,4.0
43,43,uaz8YKPbscDa7krfXvK_tw,Mr Kiwi's,11206,40.696916359286,-73.9347926387388,$$,4.5
44,44,yRnLKQmmGgyUtLf3aw7nAQ,Swallow Cafe,11206,40.70531,-73.93343,$,3.5
45,45,IlA9mNIrf7YoNEzlknkT8g,Gala Foods Supermarket,11206,40.71075,-73.94393000000001,$$,3.0
46,46,JRmQRFEEnSUdAcesHun9AQ,ICHIRAN - Brooklyn,11206,40.707587,-73.93327099999999,$$,3.5
47,47,v7hwkFxrz2pORrT9Fiiovw,La Lupe,11206,40.69725,-73.93517,$$,3.5
48,48,ZrzSDDj54aUlPqn4MQMKeQ,Momo Sushi Shack,11206,40.705140613299996,-73.93334005513199,$$,4.0
49,49,_BFY0UUh1HjLPNjQwyLSxg,Stay Fresh Grill & Deli,11206,40.698232,-73.93703199999999,$,2.5
50,50,jS8WmzSHWZVZeOpAmhHwrg,Danny's Pizzeria,11206,40.70787,-73.93970999999999,$,3.0
51,51,bjeNNlKh5l6UmoFWI1RD1w,Danny's Pizzeria II,11206,40.70778,-73.94296,$,3.0
52,52,2eUjhFPMfoTcQhQ-oV09CA,Brooklyn Natural Foods,11206,40.70531,-73.93343,$$$,3.0
53,53,FjeUodgFr0KCWJ1ylvGjdQ,Haab,11206,40.71099,-73.94707,$$,3.5
0,0,iYwDxwJo-xQrlgzz-kYnsw,Wyndridge Farm,17313,39.8831686377525,-76.6489820927382,$$,4.0
0,0,28w2W_sIOi_g4KfjpBsl5A,CaraMia Pizzeria and Restaurant,11789,40.95191,-72.98457990000001,$$,4.0
0,0,I8qw99wrI8_6q8LgnL4pYQ,Little Dumpling - Bayside,11364,40.7490499,-73.75681,$$,3.0
1,1,zOidWChUejS-lHyd3Cv6ug,Greek Family Kitchen,11364,40.7335277154316,-73.75872972625959,$$,4.0
2,2,PxDPLaLj8349G5MsyMmV7w,L' Italiano Trattoria,11364,40.748090000000005,-73.76134990000001,$$,3.5
3,3,DXMfEyJCCAUFgtVZpSkwVA,Nan Bei Ho Corp,11364,40.75523,-73.76834000000001,$$,3.5
4,4,2hu3EP_FC82b8lHsA67uWw,Key Food Stores,11364,40.740263,-73.75954300000001,$$,2.0
5,5,9lVi_UdOEfpxAbqU84XE6A,Blue Bay Diner,11364,40.744014,-73.776332,$$,3.0
6,6,ye2_i_r1eyXaMi919LDF7g,Villa Rustica Ristorante & Pizzeria,11364,40.7400713,-73.758146,$$,2.5
0,0,HwyrQMT4JRmGUWZejMSsNw,Nature's Bakery,89706,39.2060966,-119.73831489999999,$$,3.5
0,0,vzQ9SnWi6UIBiCLgLPBuwA,A-J's Dockside Restaurant,31328,31.99729347229,-80.8547058105469,$$,3.5
1,1,wKYFDDOio0YCIioAkvKVRw,Gerald's Pig & Shrimp,31328,32.0199904638068,-80.8558947158597,$$,4.0
2,2,QW_W12DWeT-jBpA9phpFzA,Tybean Art & Coffee Bar,31328,32.020387,-80.857244,$,4.5
3,3,yjMcpWsbd2ORoe0idKLIjQ,Lighthouse Pizza North,31328,32.0197983,-80.85463709999999,$$,2.5
0,0,RGRZ5dIx5jOQsyPNRBthDA,Creations Baking Company,76063,32.5660807,-97.13527640000001,$$,4.0
1,1,HQ9SUxjNnPppXaTDYhswww,Marylou's Coffee and Sandwich Shoppe,76063,32.564816,-97.142199,$,4.5
2,2,XgNNlLV5IvoQAALRs62AIg,Eterna Health Food Store,76063,32.564757,-97.134509,$$$,5.0
3,3,vIsJ0jxBr5RG-qHt3l1OVQ,Hearth Cafe,76063,32.58299,-97.12952,$,4.0
4,4,RzJGxg-Nzhmx4MH1fgiqGA,Big D Barbecue,76063,32.5661193995569,-97.13501695461001,$$,4.5
5,5,ZcOeLhcnCz2OWbmcGIJMuQ,Our Place Restaurant,76063,32.591334,-97.15664,$,4.0
6,6,vDAd9qDdKwBVfgyJgqBTQw,Twisted Root Burger,76063,32.562565,-97.14181190740959,$,3.5
7,7,zemuO8HM7pn5G1xIHKe3MQ,Sake Hibachi Sushi & Bar,76063,32.5921968608211,-97.14436313390792,$$,3.5
8,8,bYCEr4-MrM9JK9VpipdbYQ,Mama's Pizza,76063,32.59367,-97.14121999999999,$$,3.5
9,9,t_5gat47qhmRuGPFmizAMg,Suzushii Sushi & Grill,76063,32.594599,-97.150933,$$,4.0
10,10,HtVIMOhOHTF4Zde5DjNCjA,Chili's,76063,32.58981,-97.14233,$$,3.0
11,11,LcpTTBUumdZmSGdXPAL-Hw,Braum's,76063,32.5933477942194,-97.1507565254393,$,2.0
12,12,oIlnhXDG99HIUoc9fOWbHg,On The Border Mexican Grill & Cantina,76063,32.5962316104074,-97.14915688343241,$$,3.0
0,0,H1Bs27aRoY5X3UyJEm_Q0Q,Rica Arepa,60639,41.9168,-87.73347,$,4.5
1,1,Tnp_3zlgGfo8b9iQtQNQPQ,Babushka Bakery,60639,41.917209,-87.744603,,5.0
2,2,nWh90-4cYKhFdoskIPxHtQ,Cooked,60639,41.928513200000005,-87.74687259999999,$$,4.5
3,3,nv_WBmoZ5wTjE2bH_GxkkQ,Hermosa,60639,41.917308807373,-87.7361297607422,$,4.5
4,4,hB8K9iS9RmjwMtc6TU8s-A,La Piri Tacos Taqueria,60639,41.9312287,-87.7786382,$,3.5
5,5,ODDFLQVW3tC8IYHTpkZ05g,Today's Temptation,60639,41.91655,-87.768785,$$$$,4.0
6,6,SIpkuonA9o15KGEuy-PTUA,Taqueria El Tapatio,60639,41.92471,-87.73325,$,5.0
7,7,5fLORPkY7uV9PmWoeFHTWg,Big Lots,60639,41.931717,-87.74263359999999,$$,3.5
8,8,gCsXt3zmt4XyhIDjDKT5pw,Walmart,60639,41.9347361,-87.7429357,$$,2.5
0,0,5uzyDO_0ygEio1uGUQcnEA,Benjamins,15701,40.6225,-79.14745,$$,3.5
1,1,z0ngZADFNdzfvQnNhq4P2w,Insomnia Cookies,15701,40.622486,-79.1535201,$,4.0
2,2,FOlhVUvr9XVi0b-7bCfckg,Spaghetti Bender's,15701,40.623309899999995,-79.15002,$$,3.0
3,3,OjToqCpiALe-eNCvx05xww,Tres Amigos Restaurant,15701,40.615749620954794,-79.17159685951891,$$,3.5
4,4,OwGGcCbSn-Z_1TkVGkgM5g,Thai at Indiana,15701,40.6226107,-79.15352299999999,$$,4.5
5,5,07cMawXTQgpRKINuy9o-1g,Twisted Jimmy's,15701,40.6234427401283,-79.15320542091601,$$,3.0
0,0,dN2NGyvzQN6mIuuvjZGRUg,Lemon Zest Cafe,91206,34.146679999999996,-118.23995,$$,4.5
1,1,ZUYbfeXA932QRcqpLrpheg,Country Boy Catering,91206,34.1527251,-118.2117257,,5.0
2,2,91s9oZ659g6n6cQ0O5YBdw,Roobic's Cafe,91206,34.15056783,-118.23685417,,5.0
3,3,2cDrWNhKy2QsZaWLOJD73w,Skaf's Lebanese Cuisine,91206,34.15144,-118.2368,$$,4.5
4,4,zfKmSS1Vd3f-bAr1SBLEbw,A B C Christian Supplies & Health Food Store,91206,34.1522750854492,-118.232376098633,$,4.0
5,5,FZJiBojS-nTZog95LX6mXA,Mignon Chocolate,91206,34.1506996154785,-118.23689270019501,$$,4.5
6,6,hJgziAB853QVMGOrT06Gsg,Chop Stop,91206,34.1551741524807,-118.24329319539801,$$,4.0
7,7,MfG4EjuIBEFLKQ6ILzgsVA,Two Guys From Italy,91206,34.151953999999996,-118.236896,$$,3.5
8,8,nrJikAxD5ByPyX7YxTq25Q,Starbucks,91206,34.154914,-118.24482900000001,$,3.0
0,0,tzHvGr0GbJenQ6YncaTPmg,Alamo Drafthouse Cinema Slaughter Lane,78739,30.198745040836602,-97.86883599981951,$$,3.5
0,0,1EzTLA8RLbRF4rxvjV0r8g,Tazza Kitchen Trenholm Plaza,29206,34.017418299999996,-80.9637382,$$,4.0
1,1,sAl7k5cw07SPxUBkj89w_Q,Trader Joe's,29206,34.020162,-80.97281,$$,4.5
2,2,LjW4GGiusvIu6MU0YQgiuQ,Zoes Kitchen,29206,34.019205399243695,-80.96336156129841,$$,4.0
3,3,_m5Sv8fYaFY9YEcolNoRnQ,Pasta Fresca,29206,34.018370000000004,-80.96818,$$,3.5
4,4,R4lrVRa8nhJir4_ZTsdAww,Groucho's Deli,29206,34.019794,-80.96791800000001,$,4.5
5,5,aYLYaaDOcMSfSV5p8e7HiA,Original Pancake House,29206,34.0180336701171,-80.9639070343933,$$,4.0
6,6,e4aavY6oZc4icWiDxTO3Bg,Arirang Korean Restaurant,29206,34.0482299,-80.9441,$$,4.0
7,7,Ifqh-eIDcqgHVS_Jz2U2fQ,Bonefish Grill,29206,34.019232184207,-80.969681049963,$$,3.5
8,8,ZVJX1CNDnimXW3a0kGRtTA,Starbucks,29206,34.018144,-80.964205,$$,3.0
0,0,XP7JtmdiyFXp6yHkzixPGw,Catered with Class,94591,38.10856,-122.21234,,4.5
1,1,WmAWsOrPxtT4dqsYE-XiUQ,MOD Pizza,94591,38.131849100000004,-122.2156496,$$,3.5
2,2,N6wjL35imRGQe8NeFlTtcw,Cold Stone Creamery,94591,38.133350694414,-122.21838400000001,$,2.5
3,3,hdUEJ1ouaMmvWxKlpFI9Ag,Rubio's Coastal Grill,94591,38.133340999999994,-122.21831499999999,$,2.5
4,4,0qRxZMMVrlBisZppjnxtSA,Chick-fil-A,94591,38.1360796512175,-122.21440500315501,$,3.5
5,5,K3JlGUgW6dox4OSUao9zvw,Sac's Tasty Hot Dogs,94591,38.1058445,-122.2113821,$,4.5
6,6,Zvs30pUbVEo9AxqiRm8E8w,Chevys Fresh Mex,94591,38.1348638185289,-122.21838026265301,$$,3.5
7,7,tJVtz1DmQnhIWOE95nZB0Q,Olive Garden Italian Restaurant,94591,38.135102541994705,-122.21738915596201,$$,3.0
8,8,zf_sl3pC0m2GfMYZPG2Okg,Black Angus Steakhouse,94591,38.1330934,-122.2168793,$$,3.0
9,9,ariFulmk4z1ZHUzg-z_zEQ,IHOP,94591,38.13308,-122.21613,$$,2.0
0,0,c3nl-5GwE831rNCzYC4Tjw,Cravings Cupcakery,22192,38.6849617315373,-77.3170398920774,$$,4.0
1,1,V_S02DcVHa1owurKficG7A,Presto! Pizza,22192,38.6740669993886,-77.33318420246721,$$,4.5
2,2,39JeJL7wTQEbQvUuKzv-nw,Sushi Bae,22192,38.683805384844106,-77.31890631800292,$$,3.5
3,3,pMKUB8Kq9D8ou5gOmv2CIQ,MOD Pizza,22192,38.6537086,-77.3053668,$$,4.0
4,4,xFQ8IiEf1vjGfUxpp4Oyhw,Sweet Frog Premium Frozen Yogurt,22192,38.653049468994105,-77.3085479736328,$$,4.0
5,5,cNUNoSQPAdR1U9Vf0D56qQ,Chick-fil-A,22192,38.672422322618104,-77.33447317731999,$,3.0
6,6,ia_7SvjIN310weaekqPkbA,Chuy's,22192,38.6502777682375,-77.2906380846551,$$,3.5
7,7,_siIJYwr_H1yuoxXaAwQfg,Starbucks,22192,38.674593,-77.33473000000001,$$,4.0
8,8,1TYZzpMsNydTiA_iIPiSXQ,El Paso,22192,38.6522447190063,-77.30446942129359,$,4.0
9,9,fLjpLF5NB6EYU9fahwBlog,Brittany's Restaurant & Sports Bar,22192,38.6840439,-77.3185196,$$,3.0
10,10,X4L4pccaANwxb4KIzoj7rQ,Jersey Mike's Subs,22192,38.6514931,-77.301506,$,3.5
11,11,dRrPdRHQDd_Ag7a-oGQX8w,Paisano's Pizza,22192,38.6835585520962,-77.3174542812546,$,3.0
12,12,4US5bbCS8MMYjyq7r3mI4A,Starbucks,22192,38.685576,-77.311559,$$,2.5
13,13,eY7d_WJdCSzh8-tu0WcU0A,ALDI,22192,38.6539759,-77.30564129999999,$,4.0
14,14,h7JcWaJPBf-JwQk_X8_1YQ,Carrabba's Italian Grill,22192,38.6551269,-77.304133,$$,3.5
15,15,1AAWjhrnUVwATfqJJXqaKw,Fuddruckers,22192,38.65446619242329,-77.30534271479729,$$,3.5
16,16,rZfUBwKrC_D-nV5nErcn1Q,Famous Dave's Bar-B-Que,22192,38.653,-77.28813000000001,$$,3.5
17,17,zZbbMMkrXX43HFyyYbwcTQ,Taste of Tandoor,22192,38.65302339490071,-77.3058465949488,$$,4.0
18,18,ajteQrM3TSLDfWRcdPxd2g,Chuck E. Cheese's,22192,38.650501616985004,-77.29834219898841,$$,3.5
0,0,slWQZiYdCf3xIc2wg_tQdg,Starbucks,22193,38.64653,-77.33451,$$,3.5
0,0,l-Lkq3jTFp8Yzdc7zAwugw,Coquette's Bistro and Bakery,80903,38.8248439264466,-104.824476435225,$$,3.5
1,1,IWEov03Ho8RqRATFLFlUVg,The Rabbit Hole,80903,38.834458919698,-104.821714893066,$$,4.0
2,2,bFkbpRZlz9MoOsiSQhfx3Q,Skirted Heifer,80903,38.8370285078266,-104.8236923282,$,4.0
3,3,SfGb_2oq-53RswUoWUGmrg,Odyssey Gastropub,80903,38.83867,-104.82287,$$,4.0
4,4,V5AEqe5LSMkEZ0sv07UpjA,Urban Egg a daytime eatery,80903,38.83282,-104.82402990000001,$$,4.5
5,5,XflGtJb3YAUdY5FJus219w,Shuga's,80903,38.8243,-104.82621999999999,$$,4.5
6,6,VwA-6xJTaoHML70chXxNuQ,Phantom Canyon,80903,38.834459,-104.824852,$$,4.0
7,7,IYjqctGk-iIhUh_iK6egcg,Vore Food Truck,80903,38.821960411092704,-104.828240834177,,4.5
8,8,gUfMYA0rP7fbnq53T385zQ,Paris Crêpe,80903,38.83739,-104.82384,$,4.5
9,9,PEZCaOJKHxGZOYKVWEBTdQ,Azada Mexican Grill,80903,38.836886013265705,-104.824297224296,$,4.5
10,10,axurPP83t3iMNmwFaR_Jjg,Azteca Gourmet Organic Tamales,80903,38.833546999999996,-104.819277,$,5.0
11,11,PFC0zCaZSybO9T5vzbu4fA,The Green Line Grill,80903,38.8270865,-104.81871149999999,$,4.5
12,12,eB7QxG3uyGhbEMnjBeZQIg,Red Gravy,80903,38.8326885552566,-104.82295567071199,$$,4.0
13,13,CATzv81tAMSMzdE-lpisQQ,Pikes Peak Lemonade,80903,38.837621,-104.823534,$,4.5
14,14,TVd-qDVwHbUEKzegws5fJw,Rasta Pasta,80903,38.839870452880895,-104.822891235352,$$,4.0
15,15,VUp18BJxBe5F2uiSj4xtnA,Streetcar520,80903,38.82614,-104.82432,,4.0
16,16,LSOlWUxLrCdBzOQ9DlqIfg,Denver Biscuit Co.,80903,38.8258494,-104.8241853,$$,4.5
17,17,67yJ41J626raBRP1j3RmWQ,FH Beerworks,80903,38.82605,-104.8234,$,4.5
18,18,QnLIKcJXhgAAuw-YNtkSUg,Poor Richard's,80903,38.8390001644575,-104.823340054732,$,4.0
19,19,WhE7VoZNkxMv7BJoR3WQwA,Sonterra Grill,80903,38.83282,-104.82402990000001,$$,4.0
20,20,GtBUZcMYnF4cnHLeJaQO4g,Mission Catering,80903,38.818309899999996,-104.82641,,5.0
21,21,IU5LJzU_uW_Grzclh13Drw,Montague's Parlour,80903,38.819145202636705,-104.82380676269501,$$,4.0
22,22,wp1BLANQY5Us7aBJnQVMDQ,Switchback Coffee Roasters,80903,38.838840000000005,-104.80833,$,4.5
23,23,32v2m6ArsFl6bsfc0LUfyw,The Ute & Yeti,80903,38.834785461425795,-104.82106781005899,$$,5.0
24,24,uhs0iGAyq8vz1ZfPCmIWlQ,Cupcake Girls,80903,38.838226,-104.81933599999999,$$,4.0
25,25,1fRQAuk1wShVsY82-6DJnQ,Loyal Coffee,80903,38.827789306640604,-104.822593688965,$,4.5
26,26,VnOfGULAj_MjcAakMNziDg,Bambino's Urban Pizzeria,80903,38.8368606,-104.8239801,$,4.5
27,27,G6xtCAhKnboyfAH318S9xQ,Colorado Craft Social,80903,38.8330810607767,-104.82350983607401,$$,4.0
28,28,OMWnwHjNwNTtVBW8nPbjhQ,Pikes Peak Market,80903,38.8336942920485,-104.819499325219,$$,4.0
29,29,SHPT-kgqp0-hPDfUu5trkg,Taste of Jerusalem Cafe,80903,38.836766,-104.82435600000001,$,4.0
30,30,XtlhRpuvDz0sOP67xOpt3w,Il Vicino- Downtown,80903,38.83337,-104.82321999999999,$$,4.0
31,31,qLYQWWMBOcsafp21jyRaNg,Bingo Burger,80903,38.836291191692204,-104.82360991071998,$$,3.5
32,32,AqdVjsCyvDCGOwCH6eVqaw,Iron Bird Brewing Co,80903,38.8280356905,-104.82231105022,$$,4.0
33,33,z-OcVcbNsuckreDymsQ6yg,Nourish Organic Juice,80903,38.8335994,-104.8194968,$$,4.5
34,34,WP4bpHJX2C-PKDNnXoGGFg,The Perk Downtown,80903,38.833071000000004,-104.8237332,$,4.0
35,35,Alcc7Q3SCFVCQGZDWM_5fA,The Warehouse Restaurant & Gallery,80903,38.826645,-104.827354,$$,4.0
36,36,xhI6CO3Bai82Ggtov--Ilw,Josh & John's Naturally Homemade Ice Creams,80903,38.83341,-104.8228,$,4.5
37,37,p0wkb8KGl4f5gl5TpMmt-Q,Ola Juice Bar,80903,38.8351848157531,-104.823833103889,$,4.5
38,38,TN52yqqRmqcJt3s6QtkiLw,The Wild Goose Meeting House,80903,38.8397865909218,-104.82295437301599,$$,4.0
39,39,Sev9qtOIwRkPXM2jmqIclQ,Story Coffee Company,80903,38.8369018,-104.8224973,$,5.0
40,40,DpbeHG6jGwXKf5XwCVsczg,Four by Brother Luck,80903,38.839079999999996,-104.82271999999999,$$$,4.0
41,41,-si6OKNwT6-LwGPWMKlclQ,The Melting Pot - Colorado Springs,80903,38.8342191,-104.82404820000001,$$$,4.0
42,42,yiJ0rCNr26QwOLDFL0G0eQ,King's Chef Diner,80903,38.836454640637,-104.82187707060699,$$,4.0
43,43,qa_-6E9DDLU5uNkBT3lqeA,Mackenzie's Chop House,80903,38.831420200000004,-104.82396829999999,$$$,3.5
44,44,w0GJOyfwAahBiVN5oPn6PA,Spice Island Grill,80903,38.8351,-104.82807,$$,4.0
45,45,Y8BNufhO1_8MNMORxIFb5Q,Louie's Pizza,80903,38.83927,-104.82276,$,3.5
46,46,d-SfVIjiCgmHZfOoVai6jg,Oskar Blues Grill & Brew,80903,38.836031080459705,-104.82384335249701,$$,3.5
47,47,qffHvLt5Yr_owg2xlUr-Fg,El Taco Rey,80903,38.83244524618979,-104.818679094315,$,4.0
48,48,hAQ4Bmx5YDR0Qi8bC4ofBQ,Bonny and Read,80903,38.8354479050029,-104.82305008918001,$$,4.0
49,49,KvDDAv3u4lsPWp_cOBtKRA,The Exchange,80903,38.82612,-104.8244,$,4.0
50,50,mZr0v_jEhdCT2y2pD5v6Nw,Rico's Café,80903,38.839045,-104.8236097,$$,4.0
51,51,x4kP4CysrDBabnTVUT-BYA,Fratelli Ristorante Italiano,80903,38.8359552023882,-104.821736220166,$$$,3.5
52,52,6nMr21cjRmhXTXbWPT_iSg,Luigi's Restaurant,80903,38.8200721740723,-104.823928833008,$$,4.0
53,53,ihEhtCO_sftrBjgs9rn1fg,Urban Steam,80903,38.8190859,-104.82945129999999,$$,4.5
54,54,i2bl2GCZFvBA2DDdUJciSA,Jack Quinn's Irish Pub and Restaurant,80903,38.83297,-104.82306,$$,4.0
55,55,4kLUDkiHlxLCkM54b7QL3Q,Chipotle Mexican Grill,80903,38.83307,-104.82306,$,3.5
56,56,ULkWUexN2raHqEOkNWUZBQ,King's Chef Diner,80903,38.82844,-104.82352,$$,4.0
57,57,MIp_FxVGDPsz74P9F8ZKAQ,Everest Nepal Restaurant,80903,38.836944,-104.823881,$$,3.5
58,58,VGuZ-pz4ygu2L6rXgTlSNA,Antlers Grille,80903,38.8333396911621,-104.82666778564501,$$,3.5
59,59,n-Yekg8EjWcS8TuHT8IWjw,Borriello Brothers Pizza,80903,38.837720000000004,-104.82039,$,3.5
60,60,KZ3Yrk1UMMXzi4u1PGc0MA,Rooster's House of Ramen,80903,38.839129952363,-104.822760075331,$$,3.5
61,61,zgeX_orRvNw5uUZkfbGWew,Marco's Pizza - Downtown COS,80903,38.833377299999995,-104.8237304,$,3.5
62,62,NlNT3qB2BnAy9DnDFklOKg,Wooglin's Deli & Cafe,80903,38.8458185,-104.8227218,$,4.0
63,63,srwUxGPmp-Lw3hNZfledbg,Starbucks,80903,38.836543142273,-104.823603,$,3.0
64,64,mmxHjDpSbA6W3eR0LRwdmA,Starbucks,80903,38.833544,-104.823351,$,3.0
65,65,WY4TlSn11u-A6UgW142fyg,The Thirsty Parrot,80903,38.832691192627,-104.82396697998001,$$,2.5
66,66,XUcxOczMDO4C2jXDHjuYxw,Fujiyama,80903,38.833006,-104.823763,$$,3.0
67,67,FR4e60e65FOn5v4ULrdt1Q,Springs Orleans,80903,38.83368170000001,-104.822507,$$,3.5
68,68,cfsetVrqba5f86uww0UxFA,Jose Muldoon's,80903,38.8375823080424,-104.823499768314,$$,3.0
0,0,ShSZ8vPZlmrC7P7w7B5D5g,Damons,18202,40.981179499999996,-76.0291248,$$,3.5
0,0,r_wfBny5ftkDmpwVn4YrQg,Megallons Gourmet Barbeque,23518,36.915458679199205,-76.2146530151367,$,4.5
1,1,xZyJ2uicMRCIde4JIbpxUA,Lidl,23518,36.899732,-76.226447,$$,4.0
2,2,IqXgJpIDuTrEjSoYf6mjVQ,Food Lion,23518,36.896146,-76.22368,$$,3.0
3,3,hmNgwPSmy3c1UGRPURj35g,The Great American Bagel & Bakery,23518,36.898447,-76.204759,$,3.0
4,4,2CCowEhPHsnm5h9EMX4WXg,Sushi King,23518,36.916999038484704,-76.1932581882503,$$,3.0
0,0,0JmO9IUPf4qHa-lqTe8c3Q,Curryosity,92104,32.72948,-117.12926999999999,,4.0
1,1,FRfUgOKobN0foq12s9OUTA,Mike Hess Brewing Company,92104,32.747702000000004,-117.128543,$,4.5
2,2,jLND0q_AFpsxY8CQ3njKeQ,Bread and Cheese Catering,92104,32.750251770019496,-117.136962890625,,5.0
3,3,nap_QrXJTEzJgj0_VbxBBg,619 Spirits North Park,92104,32.750151,-117.1297898,$$,4.5
4,4,-BZ9L7G1OOUsb_uMYYuYeg,Butter Up Bakery,92104,32.7501258850098,-117.137420654297,$$,5.0
5,5,KX1aYCfF_bKSSu5lCrgQwA,Couch Potatoes,92104,32.730571999999995,-117.113571,,5.0
6,6,RXn_bE7f3eSpCvDOY06tQQ,One Door North,92104,32.7415499,-117.13036000000001,$$,4.0
7,7,YLV7ZZoyOAXW3eqidGXBZA,The Smoking Goat,92104,32.74135254245,-117.13022951466299,$$,4.0
8,8,2viC5B-psszDSGKHkp8I2Q,Dunedin New Zealand Eats,92104,32.742340000000006,-117.12986000000001,$$,4.0
9,9,xyw7ytvqkXw7LUJuBStn4g,Nomad Donuts,92104,32.74872,-117.12748,$$,4.0
10,10,H3XluJQlArmynJc2YBErzg,Thorn St Brewery,92104,32.73935,-117.12548400000001,$,4.5
11,11,aefEbr_morYtua4sDCEppg,Urban Solace and Bar Solace,92104,32.747865999999995,-117.12984499999999,$$,4.0
12,12,8_daEwM6HLhOrejP8P1cCA,Del Sur Mexican Cantina,92104,32.72999,-117.12977,$$,4.0
13,13,khfwO2XkhdepghhT7sTaWg,Flora Bakeshop,92104,32.7501258850098,-117.137420654297,,5.0
14,14,kP-35U6V57A4rLyyKXQdbA,Bivouac Ciderworks,92104,32.75005,-117.13051000000002,$$,4.5
15,15,vGVfzg5PC33f7-nyWnGNcg,Grandma Said No Cookie Dough,92104,32.739867100000005,-117.1205925,,5.0
16,16,DAZ6F_1zDZp3qa6X1OjuCg,City Tacos,92104,32.748734999999996,-117.12941699999999,$,4.5
17,17,BuL2oEZzwH76q_GDCDwzUw,Craft House North Park,92104,32.7524,-117.12996000000001,$$,4.5
18,18,t3Zq93GA12SZFdrbQbYWcA,Juneshine,92104,32.755592,-117.12875020000001,$$,4.5
19,19,3jVHoQ6F7EITzNpEHPTpnA,Parkside Market,92104,32.7391151,-117.12435459999999,$,4.5
20,20,4jLPsl5gJpusHFp1KqEDCQ,The Rose,92104,32.7290984,-117.1300506,$$,4.5
21,21,xIec5MlLUCS61-ZUKlW_ZA,Tribute Pizza,92104,32.74713,-117.127953,$$,4.5
22,22,3KVK_rzWi3kdDm_BTmBmjg,"Eyton Shalom, MS LAc",92104,32.7433489519151,-117.139707853967,,4.5
23,23,AMg6Mkb8Yf94p4abiN197A,Urbn - North Park,92104,32.748306,-117.12719299999999,$$,4.0
24,24,r6QVmPUIu28Lhr3ohDJ-0A,Atypical Waffle Company,92104,32.7426,-117.12978000000001,$,4.5
25,25,qWRk44Xoi928orQw_ebtjw,Swami's Café North Park,92104,32.748726,-117.130885,$$,4.0
26,26,oJN5nvWjrBxJH7RIjU8I9g,Station Tavern & Burgers,92104,32.728789899999995,-117.12978999999999,$$,4.0
27,27,5GOBztjCXLb3O4iQgsxpzA,Shank & Bone,92104,32.7485849,-117.1307621,$$,4.5
28,28,mcnob8dAMH1J5iRQON6uLw,Influx,92104,32.74134,-117.12959,$,4.0
29,29,qmqObLeWQX5UHXneaFJJhw,Alexander's North Park,92104,32.740984999999995,-117.129182,$$,4.0
30,30,tbt_BCJ5Xd6Kt9XJgEQkww,Poki One N Half,92104,32.748736,-117.129369,$$,4.5
31,31,2MpwN-y-7K4EFK6UE_wNaw,Simply Fresh,92104,32.7501258850098,-117.137420654297,$,4.5
32,32,ah1wsendgkhUtTSR-MVDZw,Encontro North Park,92104,32.74822,-117.12976,$$,4.0
33,33,FCvsDEFkyQpjoUUr8TFS9Q,Santos Coffee House,92104,32.739090000000004,-117.12518,$,4.5
34,34,YkGh350ih1IQjbKrcARXwQ,Awash Ethiopian Restaurant and Market,92104,32.75571,-117.13181999999999,$$,4.5
35,35,3amlgJveiE44jmcqo_BWpg,Café Madeleine,92104,32.72948,-117.13045,$$,4.0
36,36,aAIYbcQEvJTqngwUS1qxbA,Underbelly,92104,32.741507,-117.129944,$$,3.5
37,37,Yxs3FuJLS2ls8Yx7Jwv9qw,The Mission,92104,32.74815,-117.13338999999999,$$,4.0
38,38,oW2VeJMX9AFwuDyNyv2AXA,Subterranean Coffee Boutique,92104,32.7465611,-117.1301038,$,4.5
39,39,pmOX8ZaotjMhJ8o1Qs-s5g,Tiger! Tiger!,92104,32.754940000000005,-117.12953,$$,4.0
40,40,L-TSJLiLBTToxOjTjHkFOw,Mr Moto Pizza House,92104,32.746889,-117.129751,$$,4.5
41,41,lgvXTNsRaJ9sG1rPARcRKw,Holy Matcha,92104,32.74872,-117.12716999999999,$$,3.0
42,42,SNYMxDXzG6W8drNVLenmKA,El Tianguis,92104,32.7557,-117.13346000000001,$,4.5
43,43,EvoPaJ4UJCeqdIl3NLN-fw,Dark Horse Coffee Roasters,92104,32.74719,-117.13035900000001,$,4.5
44,44,Vm4YnisWHjvnghJQ6ETUZg,Mazara Trattoria,92104,32.72984,-117.12977,$$,4.0
45,45,LIs4Hqe-KXFG9zYnPxspbA,Let 'em Eat Cake,92104,32.7501258850098,-117.137420654297,$$,4.5
46,46,6PWuSLKJkPHsS1stDZx2tQ,Awash Market,92104,32.7557144165039,-117.13182830810499,$,4.0
47,47,B0UAXJMERE82vjBvf36xcw,Anthem Vegan,92104,32.754909999999995,-117.13597,$$,4.0
48,48,7s7PaYgVZd6XlM-mQn92CQ,Waypoint Public,92104,32.74719,-117.13035,$$,4.0
49,49,PoTvUPzoJbqkfJmjk2gibg,Baron's Market,92104,32.748188281058304,-117.124271169305,$$,4.5
50,50,Qy7ILveVCiTvPvg3WTN3KQ,Communal Coffee,92104,32.72903,-117.12929,$,4.0
51,51,KVRZtnxe_7hbvayLf2oohw,Classic Rock Sandwich Shoppe,92104,32.74757,-117.12853999999999,$,4.5
52,52,f2Z0Fe-m2zgY_EKcyS8vQg,Sipz,92104,32.7487591,-117.13016929999999,$$,4.0
53,53,7x-cEvfQStSoebROWpOzgA,Tamarindo Latin Kitchen & Bar,92104,32.748709999999996,-117.1311,$$,4.0
54,54,jCYH7UWB1qIUKOncuE9k7g,Smitty's Taste Of The Bayou,92104,32.7444375,-117.1303768,$$,4.5
55,55,tG-Tt2ay8gtqorATWVnMcg,Street Side Thai Kitchen,92104,32.74816,-117.12943999999999,$$,4.0
56,56,yTOarEZWi7B2_xRaA30o8Q,Aburi Sushi,92104,32.740829999999995,-117.12948999999999,$$,4.0
57,57,r7LQCPts3D_8ERNbxArK8A,Eclipse Chocolate Bar & Bistro,92104,32.728347899999996,-117.1293895,$$,4.0
58,58,PDJ4pB2LEdfayNAXzvecXw,Figaro Dessert Cafe,92104,32.74822,-117.12976,$$,4.0
59,59,LZ0jsgVNxkiKR8A6P-v-Iw,Caffè Calabria,92104,32.749208,-117.129792,$$,4.5
60,60,kgICubCTkvEQla-Pd3tiMA,Ranchos Cocina,92104,32.74885,-117.1305,$,4.0
61,61,D9kToJot3AEfW5otKlEv1A,Lucha Libre Taco Shop,92104,32.74872,-117.12961999999999,$,3.5
62,62,uTCLFwn-xEBKCrUWHfOeTw,Breakfast Republic,92104,32.7486992,-117.13423159999999,$$,4.0
63,63,N804qVYIzHWz-Vdc7VcJBw,North Park Beer Company,92104,32.7487183,-117.1291179,$$,4.0
64,64,8rlkXwZKXDrRwUaQW-3usQ,Loving Hut,92104,32.7550451,-117.1447807,$,4.0
65,65,Z-mCNwmUzSzFuLJMipu0Bg,GIHON Ethiopian Kitchen,92104,32.75569,-117.13799999999999,$$,4.0
66,66,pNioiH_ZMeJpleCYxi-_eg,North Park Sushi & Grill,92104,32.74816,-117.12943999999999,$$,3.5
67,67,ijEonTpC6pu7aUPoyvaerA,Barn Brewery,92104,32.7555700512994,-117.132338401943,$,4.0
68,68,heELuhO983VIg9pxIIGx1Q,San Diego's Finest Donuts,92104,32.749989899999996,-117.11899,$,4.0
69,69,iouPTz4mmGRRuQvU_YaqCA,Cafe Madeleine,92104,32.755532921516696,-117.132549222542,$$,4.0
70,70,7_4OrGjaKWjs1IV7vvNiUw,Working Class,92104,32.75203,-117.12991000000001,$$,4.5
71,71,UOM1YUvQ0UVvFFNKPDtdRA,North Park Thursday Market,92104,32.7474310224217,-117.13039711436701,$$,4.0
72,72,wHcZpIoNZ6smRlp9asPikg,Holsem Coffee,92104,32.748081199999994,-117.1306915,$,4.0
73,73,zooqvTOm7eutVmPQnJ3CtQ,De Luca's Restaurant,92104,32.7393935,-117.12447279999999,$,3.0
74,74,UIr7FGgFze889LwgJZFMdw,Hammond's Gourmet Ice Cream,92104,32.7484363360777,-117.127720068719,$,4.5
75,75,hlJBCEpPAWKoJsTRIUmSxg,California Tap Room,92104,32.74767,-117.12943999999999,$,4.5
76,76,wUqDZci6vfUREQeWuDrz-Q,Splash Wine Lounge,92104,32.74824,-117.12847,$$,4.0
77,77,b7VKqprNI_Jwz80mgDNbMA,Olympic Cafe,92104,32.7487189,-117.1395772,$$,4.5
78,78,HJg_U6Muihp42gpems0djQ,Il Postino,92104,32.749398046293,-117.129809646117,$$,4.0
79,79,IYkFVPGKBRKJu8_uEoWeaA,Communal Coffee,92104,32.748197022625,-117.13921610266,$$,4.5
80,80,MDDEhJvvcLdwvPFuQ4H5dQ,Lefty's Chicago Pizzeria,92104,32.741996,-117.130311,$$,4.0
81,81,B-fv4JrNeWmMZr9KVBaSFg,Unico Juice Shop,92104,32.75497,-117.13235,$$,4.5
82,82,UkaTY89vt2Yz9lWl0ssvjA,7-Eleven,92104,32.7277993,-117.1292773,$,3.5
83,83,1ugk4zxwREd7bG5pLUb_IQ,Bottlecraft,92104,32.7482828478179,-117.129725662258,$$,4.0
84,84,mkgH2uRSIOTjwfIBRpG_iA,Crazee Burger,92104,32.750184000000004,-117.12996899999999,$$,4.0
85,85,uAObVxwFeI_wO4HGMkwrHA,Smart & Final Extra!,92104,32.74797,-117.14058,$$,3.5
86,86,JKO9iIkovklxphxQyK1nPA,Golden Donut,92104,32.748912,-117.139003,$,4.5
87,87,WPtfzofgoVohzw7NPiR_yw,StreetCar Merchants,92104,32.750492,-117.130401,$$,3.5
88,88,eXsXpLbMLmbic_nmlfK_zw,Pomegranate Russian-Georgian Restaurant,92104,32.75568,-117.13968,$$,4.5
89,89,Ya8PvC2BOPibT2aqcROJVQ,Mastiff Kitchen at North Park Beer,92104,32.74872,-117.12913,$$,4.0
90,90,2ZI7_RbP_RUw4zVwfFNGTQ,Princesa Taco Shop,92104,32.752598600000006,-117.13031059999999,$,4.0
91,91,VuCoN4b1X1UMCgQJGmt0eA,Young Hickory North Park,92104,32.7520110458136,-117.130213603377,$,4.0
92,92,IPlYtMGRFhe7V8fEfaBUcw,Mama's Bakery & Deli,92104,32.754869899999996,-117.14235,$,4.0
93,93,8ecLcHIV7XY9RGdtsFTcFQ,Lucky's Breakfast,92104,32.7475355402726,-117.128354413967,$,4.0
94,94,XSH4aMmPtNEIfDEOYABkFw,El Comal,92104,32.7493532733275,-117.127943676358,$$,4.0
95,95,I6Z9W2YdmM8dRrB1PD5xGw,The Red Fox Steakhouse and Piano Bar,92104,32.754611968994105,-117.140678405762,$$,4.0
96,96,7ZhUJuH0R6z9kgs34p6FLA,Riki Sushi,92104,32.74906,-117.1305,$$,4.0
97,97,O_AM6oJYr_A8RzrjlQdGZw,Coffee & Tea Collective,92104,32.7551809783267,-117.131103090942,$,4.0
98,98,vDf19bBRF5zwNm5ah60EJA,Paesano,92104,32.7451128,-117.12994509999999,$$,4.0
99,99,IgVBr0B4GqooP3goG-In9w,Grinds & Vine Coffee Bar,92104,32.75489,-117.13828899999999,$,4.5
100,100,cKlRuY7P1BKFXrctvZqCnA,Sonic Drive-In,92104,32.7549198793719,-117.13291257619801,$,2.5
101,101,eSu3achNaW0DMUQ_0GfTzg,Coin-op Game Room,92104,32.749061,-117.13050600000001,,4.0
102,102,lm1Lfh2kQbs0ZBOsWFVq3g,The Office Bar,92104,32.749190000000006,-117.1305,$$,3.0
103,103,veBtp62w-hG4UEW7L7Ggnw,True North Tavern,92104,32.74767,-117.12977,$$,3.0
104,104,DzPJodcIS6ZxXDd36PnE6A,Starbucks,92104,32.753073,-117.1295085,$,3.5
105,105,UbWJvHPohn7mRGE7E0_jNg,Fruteria Disfrutalas,92104,32.74949,-117.11455,$,3.5
106,106,_ZYpPR9ZSJOCE7YxQHcP7w,Hope 46,92104,32.7548106973573,-117.14058315816601,$$,4.0
107,107,in2Jt8M6bqxiqDnJwzzm6A,Starbucks,92104,32.748663,-117.12503899999999,$$,3.5
108,108,asc7R21-ZuCFJ_mo3Wx32w,Florence Ristorante Pizza,92104,32.7485359691644,-117.12992191314699,$$,3.0
109,109,XPEMQbyXmjrtCTBtVV5FyQ,Pancho Villa's Farmer's Market,92104,32.7547799,-117.1236,$,4.0
110,110,CIT46xbe3sZ-5R3zdp6L4g,City Dragon,92104,32.75493,-117.1317,$,3.5
111,111,1idrlidSl70i2_fzUOBhvQ,Venice Pizza House,92104,32.754955291748,-117.121528625488,$$,4.0
112,112,Auh1mbAPYJzDHp0DjLe6Mw,Sicilian Thing Pizza,92104,32.751281,-117.13042800000001,$,4.5
113,113,_5KY0E_QSMbwOTASLvGtRQ,Toronado,92104,32.750858,-117.13051599999999,$$,4.0
114,114,2vaYDGcf28vZGqPdqrEtlw,Flavors of East Africa,92104,32.7553859,-117.1394819,$$,4.0
115,115,-R5BptII1_UaNeorvit5GQ,Roberto's Taco Shop,92104,32.755706787109396,-117.13409423828101,$,3.5
116,116,SZih06Fo4fxpKMGYIQFlTQ,Thai Time North Park,92104,32.752376199839304,-117.13039099999999,$$,4.0
117,117,wrwXWjqktcOCCLiTTcM1gA,McDonald's,92104,32.754814,-117.13927,$,2.0
118,118,EeNM9BkZ2iB4_l_O5aUTXA,Denny's,92104,32.7550416880509,-117.13784649968099,$,3.0
0,0,XU40X-m_aEEg2OudIS0P6A,Pauls Pizza Den,54817,45.658190000000005,-91.55354,$$,4.5
0,0,JDLx29yYjl_SYqNSCN48Sg,Even Stevens Sandwiches,84401,41.226511876737206,-111.97008568793501,$,4.5
1,1,AlsbJp8mmOiGGp942VfH4Q,Sonora Grill,84401,41.2232126,-111.97184740000002,$$,4.0
2,2,0wnMIPzdV7F_EZMvcyqpEA,The Cupcake Shoppe and Bakery,84401,41.2236515,-111.971644,$$,4.0
3,3,XuWwaCibQwFT43_6A7cGKw,Pig & A Jelly Jar Ogden,84401,41.22056,-111.97518000000001,$$,4.0
4,4,p4adGc2SSUeZXPT_xu3q6w,Good Life Cafe & Micro Juicery,84401,41.22085,-111.97388000000001,$,4.5
5,5,_FRn7JObMon7UvcOGJCKYQ,The Backstage Bistro,84401,41.219847930247,-111.97228418083799,$,5.0
6,6,4zN82wWzWTtGxeDHC6wQHA,Coffee Compound,84401,41.22234279999999,-111.9734565,$,4.5
7,7,rzK6DpgDLerTWxmGT6YU0g,Jessie Jean's on Historic 25th,84401,41.2204878927189,-111.97660882026001,$,4.0
8,8,-r6w_hAO42kNSUEARs2Keg,The Bickering Sisters,84401,41.2210899387975,-111.973504925131,$,4.0
9,9,UI4XrZfBePjFHS9CMsBviQ,Hearth on 25th,84401,41.220558892659604,-111.976397288361,$$,4.0
10,10,a-1AKw3H21ugDRozr2ZZyg,Two Bit Street Cafe,84401,41.221007,-111.97813799999999,$$,3.5
11,11,BYxAaTDJBqGUFv_FbEuYPQ,Ramen Haus,84401,41.219429999999996,-111.96994,$$,4.0
12,12,KqZndSWp-fi24b1a2U9L2Q,Kneaders Bakery & Cafe,84401,41.2321091,-111.97097020000001,$$,3.5
13,13,U0NZ3JheJDCiyw06i3MNHQ,Lee's Mongolian BBQ,84401,41.212877,-111.970114,$$,4.0
14,14,fhQF337xgV28ug7-Ivz97w,Lucky Slice Pizza,84401,41.2207564721419,-111.97595000267,$,4.0
15,15,ww4u6OuPGxgzUQETATrpJQ,The Lotus Wellness Spot,84401,41.22061,-111.97841000000001,,5.0
16,16,D9Lf-ivRyfV4U2YucU15zQ,Brixton's Baked Potato,84401,41.222941399999996,-111.97164509999999,$,3.5
17,17,33e7_RhBJzg4NS-gUeit9w,Funk 'n Dive,84401,41.219438000000004,-111.970041,$$,4.0
18,18,cDfOqmhYDIxtnBZRFHyFuw,Bangkok Garden,84401,41.2222061,-111.9731007,$$,3.5
19,19,DO1AS1wS9_FOzovVM6N0oQ,Harp And Hound,84401,41.219705802965706,-111.97034666667801,$$,4.0
20,20,knogAglTi6QizVYvXNwd_w,Thai Curry Kitchen,84401,41.2207117,-111.96531740000002,$,4.0
21,21,vpJD3sdoDFOI6jpWlc3rPw,Zucca,84401,41.22058,-111.9753,$$,3.0
22,22,1LfJvL2B3IbhC_DqAhMeUA,Sub Zero Nitrogen Ice Cream,84401,41.223735999999995,-111.97154599999999,$,3.5
23,23,6kjoUUzT_l66Cgp9RcEJsQ,Slackwater Pub & Pizzeria,84401,41.2333,-111.97046999999999,$$,4.5
24,24,LBhDwD_V3m_9mO_984Oojw,Harley & Bucks,84401,41.22195,-111.96995,$$,3.0
25,25,QQIl9giE68MXTZuhnViSeA,Warrens Craft Burger,84401,41.2209208976884,-111.974340006709,$$,3.5
26,26,g3yQC_qjJT0gq0J9CfUHlg,Tona,84401,41.22087,-111.97556000000002,$$,4.5
27,27,TP-8Dk1gz0ICKf8gkWAVCg,New Sun Restaurant,84401,41.22425,-111.97063,$,3.5
28,28,-I8KBtZa4_2OfuQZ7DZ3jw,Rovali's Ristorante Italiano,84401,41.22088,-111.97668999999999,$$,4.0
29,29,HsUNZyqWwIFB05J4IOu6NA,Five Guys,84401,41.224343299999994,-111.97076820000001,$$,3.5
30,30,kj_XpJMvyKC7ejhBYvOx7A,Wing Nutz,84401,41.22417,-111.9713,$$,3.5
31,31,cWX5mxYvUVu1AuXJWHqftw,Roosters Brewing Company & Restaurant,84401,41.220601309003,-111.97461619392901,$$,3.5
32,32,Xu8EAmBVfUggEj-CxDB2Hg,Costa Vida Fresh Mexican Grill,84401,41.225029,-111.9739328,$,3.0
33,33,XEvenwDm6oSo6s9kWbz5Gw,Tokyo Station,84401,41.225856,-111.97074599999999,$$,3.5
34,34,Q2N7Q-ax_OHbXSkilY2Diw,Prairie Schooner Steak House,84401,41.2343892,-111.9688807,$$,3.5
0,0,op4Pg3lK1qlIGzvfVyhI7w,Back A Yard,95121,37.2999767103452,-121.824104,$$,4.5
1,1,6X_K2jD62vg7BpAjsOpPeA,Nothing Bundt Cakes,95121,37.313918532854295,-121.794277220997,$$,4.0
2,2,T5GtrU7FmrZ3rW6GStjHPg,Super Poké Bros,95121,37.3133267345041,-121.793128529536,$$,4.0
3,3,NuB4proCGCWar7GXT5E7Dg,Starbucks,95121,37.31084,-121.809692,$,3.0
4,4,YJ2nC4SU8xFe5u1jvfcWvA,Starbucks,95121,37.30775,-121.81263999999999,$,2.5
5,5,wFnDcnzr3ngrzwhRk3oZjw,Mountain Mike's Pizza,95121,37.3121,-121.809977,$$,3.0
6,6,6hsq4kwnY9pFqlBAa2B7aA,Starbucks,95121,37.300169,-121.82194799999999,$,3.5
7,7,sZBEPxhaCzZ1yhlHXXNmng,The Kickin' Crab,95121,37.3081408,-121.8105002,$$,3.0
8,8,ZoQHP6kh_UNJGq_4T16hhw,BAMBU,95121,37.3103793981559,-121.81209379358101,$,3.5
9,9,4VBGkefXGBu669-e6HNZ7w,Starbucks,95121,37.313941,-121.794109,$,3.5
10,10,m5KM7duL3KjHJigzh7DZqw,Wendy's,95121,37.3109734628097,-121.80901032826799,$,2.0
11,11,ASl27ctPV_acnMRTgzSp5Q,Chuck E. Cheese's,95121,37.3188,-121.82943,$$,3.0
12,12,qiRDnMIjGhmTUffxl76zuw,Denny's,95121,37.2992527,-121.82374409999998,$,2.0
0,0,s4hAhh13JJGG5xK_4S0PLA,The SmoKING Ribs,92843,33.7573676,-117.9381267,$$,4.5
1,1,8c7VI0WbA6DjjOtJARGGdg,Thai Princess,92843,33.773888,-117.92012350000002,$$,4.5
2,2,1RGeKwXQwx4Ftm6NhS-Msg,Sabroso Mexican Grill,92843,33.7727347,-117.9208031,$$,4.5
3,3,b9ViTxna6SXV9lAW8x3FJA,Sweet D'oh Bakery,92843,33.76117077142639,-117.911174967885,,5.0
4,4,vAR3Gr49VvV9-oSpVQ3oyw,Los Sanchez Restaurant,92843,33.773959999999995,-117.92441000000001,$,4.0
5,5,9nOBD7QSBZp3J_dqDpLyCQ,Red Peak Original Mongolian Grill,92843,33.7710160598542,-117.921126317213,$,4.5
6,6,FjzHELOnbk0oFBCEluBs7g,Pho Nam Dinh,92843,33.773885299999996,-117.92012820000001,$,3.5
7,7,1ETSfPygQBonPunu_Hk5ZQ,Jay's Catering,92843,33.77482,-117.94792,,4.5
8,8,IZ9gCTFRAz0XkIfiQpoSeA,Denny's,92843,33.7695908484665,-117.92008124291901,$$,2.0
0,0,gwfVq_Fmd3wGB31F_SX4Qw,Grandmas Grotto,19044,40.19575,-75.137513,$$,4.5
1,1,9sXtkZy1IumKBl31eM8Ijw,The Farm and Fisherman Tavern,19044,40.188176554582796,-75.145852134443,$$,4.0
2,2,VTXE1OIWWE-IVFnMEsm39g,Bryn and Dane's,19044,40.19455338395029,-75.1574364060855,$$,3.0
3,3,scotX4dcVT8Co0Nyy1pDYA,Iron Abbey Gastro Pub,19044,40.1884,-75.13419,$$,4.0
4,4,P1jgTidmjvKNMHpmuRlGCA,Gluten Free Grandmas Bakery,19044,40.19575,-75.13750999999999,,1.0
5,5,GE-e4isVqXF3dugLO09D0g,Buona Via Ristorante,19044,40.184895000000004,-75.139863,$$,3.0
6,6,-bcnY0PELKRomT2z7eGQ3w,Jersey Mike's Subs,19044,40.187752,-75.14729399999999,$$,3.5
7,7,CnhmThuteYExAEvBSzL0qg,NaBrasa Brazilian Steakhouse,19044,40.1884,-75.13419,$$$,4.0
8,8,wEUSL8f3-k94GBwzxDoUZQ,Corporate Source Catering & Events,19044,40.17785,-75.1278,$$,5.0
9,9,sgxg7pc3UAQrULu32GAwPA,Parkside Cafe & Catering,19044,40.202053,-75.17088299999999,$,4.0
10,10,AM0TA-5mW3-yZ5WrMYYPtw,Lancers Diner,19044,40.192619855897604,-75.1364589591431,$,3.5
11,11,2UDJpaTsYHu9CXmbUMO8Sg,Fountain Side Seafood Grill,19044,40.18425,-75.13288,$$$,3.0
12,12,7rAilzfJv8d0hGD7L4ru5g,Main Street Pizzeria and Grille,19044,40.17592,-75.12355,$$,3.0
0,0,9bxdgPnfoj2a6wgNnIsVPw,Fuddruckers,60443,41.5051492958115,-87.73309464157231,$$,3.5
1,1,8mxZaeDamo40m5nVOF6LTg,Rosati's Pizza,60443,41.506769,-87.7305171,$$,2.5
2,2,g8POOMC5B2ShyhBi464jFQ,Olive Garden Italian Restaurant,60443,41.506699,-87.737938,$$,2.5
0,0,Hemx-c3YwkGMfnYYQhiGCA,Blaze Fast-Fire'd Pizza,61761,40.50994,-88.95484990000001,$,4.0
1,1,BW1FiPHV0DxesiFWV844Mw,Fort Jesse Cafe,61761,40.51733,-88.95681,$,4.5
2,2,hsu8GAyDE6RIl54EV03fbg,DESTIHL Restaurant & Brew Works,61761,40.505893,-88.95829,$$,4.0
3,3,jlA3bQIuB4bOFo9_cqeAgA,Original Pancake House,61761,40.50891,-88.95393,$,4.0
4,4,xr_bXaQpArpFtgTiA9TYrQ,Kroger,61761,40.5105049,-88.9572731,$,3.0
5,5,hwZ8h_lhRkPpPizaWrrN_Q,Flat Top Grill,61761,40.506521383829,-88.955465436209,$$,3.5
6,6,XROaWZaTJkDTzgioUI1Wzg,Great Wall,61761,40.5109215,-88.95912170000001,$,3.0
7,7,4kUMP6fVfynS943MTZQ1iA,Starbucks,61761,40.506566,-88.955138,$$,2.5
8,8,MJJZKQ8KV8op9oc_zRZr2A,Panera Bread,61761,40.513545,-88.951369,$,3.0
9,9,OIdp5suqgOTBgqdr3VaLZw,Red Robin Gourmet Burgers,61761,40.5091234003559,-88.9514493598023,$$,2.5
0,0,WbgqCprl2GpzKEts8aOo6w,Busken Bakery,45238,39.127250388264706,-84.6053876727819,$$,3.5
1,1,8rPef5MBbrqj3vzjdKE0Tw,Habesha,45238,39.128240000000005,-84.6082,$$,4.5
2,2,Rev7VR0-7wgPX2QYjUxIXg,Thai Taste,45238,39.128349,-84.609577,$$,3.5
3,3,btObl1piLzgC_SD9_paYcw,LaRosa's Pizza Boudinot,45238,39.131153027428496,-84.6055571282244,$$,2.0
4,4,zG7dUTVe1379tWTvLorm1g,Queen City Pizza,45238,39.1312218,-84.5876007,$,3.5
5,5,07ZSHppL0POs6hUNU3Bgmw,LaRosa's Pizzeria,45238,39.13074,-84.60557,$$,3.0
0,0,EAz1u4k0f9QwFi1KqdC1FA,Opal's Table,79701,31.99718,-102.07653,$$$,4.0
1,1,aUdQ9FRAFB74t9rChUYbTw,Cancun Bar And Grill,79701,31.997403000000002,-102.07659459999999,$$,3.5
2,2,rOfVl9fWXksrt3zhG_qQjA,McAlister's Deli,79701,31.9743347167969,-102.07532501220699,$,2.5
3,3,oRFMuVTYPNM1e5T8SXw5eg,Starbucks,79701,31.973315999999997,-102.074958,$$,2.0
0,0,r8kE_-ShKUS5T98sP-NUfA,Chef Sevak Iskandarian,90210,34.073459625244105,-118.400321960449,,5.0
1,1,EPMwBpQK5AERtOVImIIx1Q,Beverly Hills Premier Catering,90210,34.102294921875,-118.414672851562,,5.0
2,2,1DB66N4kJ8PhKQIiODobOA,Beverly Hills Sweet Table,90210,34.073184967041,-118.396255493164,,5.0
3,3,uHo7VTqdAirSINH6pM03xQ,Downtown Girl Custom Catering,90210,34.07242,-118.3959,,5.0
4,4,odhh0A7ET7G-E_RNABBhuQ,Zone Healthy,90210,34.07318,-118.39626000000001,$$$,4.5
5,5,-NQe1iITwzkxAEwXwXm6QQ,The Delicious Cook,90210,34.11155,-118.41417,,5.0
6,6,RYEGamxaPofHUOH75J22OA,Cafe Amici,90210,34.0804983579295,-118.39017466137699,$$,4.0
7,7,muZM6yGIGrBFoig9DOJDHw,The Beverly Hills Hotel,90210,34.081468,-118.41391000000002,$$$$,4.0
8,8,dz85m3r0d_F9PZmo_J9T2w,Clementine,90210,34.0741959,-118.3990092,$$,3.5
9,9,w5m6qhTHqOSu75BA1o7wKQ,The Polo Lounge,90210,34.0813559581321,-118.414256362696,$$$$,4.0
0,0,GIxtB-ECkbtxjCm3hUVvyw,uniQue bite eatery,92203,33.745453000000005,-116.217928,$$,5.0
0,0,ySfN2DsNbstsEBEV1mMFSw,Sam's of Gedney Way,10605,41.013870000000004,-73.75843990000001,$$,4.0
1,1,rL3rsFG694eKnse3-VSg0g,MELT Sandwich Shop,10605,41.0260607,-73.7636627,$,4.5
2,2,Wd2w57SqDXxc1tecPIhbsA,Araras Coffee & More,10605,41.0232411074627,-73.7616327032447,$,4.5
3,3,5BvcQJXmHGo3hBYoxXOoGg,Emma's Ale House,10605,41.01396,-73.75749,$$,3.5
4,4,_XRHIt9VQGnadcSiHX9SNA,North Street Tavern & Wood Fired Pizza,10605,41.001697895224105,-73.7274274975061,$$,4.0
5,5,_QcIVbFpSvRROiVTxRFDUw,Lombardo's,10605,40.992949200000005,-73.7460934,$$,3.5
6,6,1OzDB22aI8kmc3CN7_aHQw,Cathy's Biscotti,10605,41.015884,-73.745964,,3.0
7,7,3dRM5HeTyt_YZ2SL2Jc6tA,Whole Foods Market,10605,41.0279455,-73.7582236,$$$,2.5
8,8,4NmwuH0CBK4Md5GGyeqS2w,Esposito's Ristorante & Pizzeria,10605,41.024122999999996,-73.762684,$$,2.5
