,ID,Latitude,Longitude,Name,Price,Rating,Zipcode
0,hC41bT3o6E2Ub7GwFLlpXg,34.1497537493706,-118.441392704844,Mendocino Farms,$$,4.5,91423
1,qLAVvIhEriCdyptgqGR_FQ,34.1479565484519,-118.432117290795,Bluebird Brasserie,$$,4.0,91423
2,0nodbAAmzaG3MJWzPUpvTg,34.1495597,-118.4316976,Garden Cafe,$$,4.5,91423
3,ybf5brJqdGzKSH0OGf0XdQ,34.148279,-118.43042,The One Up,$$,4.0,91423
4,lPplQRh6JpfFc1yuughl_g,34.14826925818,-118.433834575117,Karreno's Kitchen,NA,5.0,91423
5,_-ZB9fGspPGFhkmMGXS5OQ,34.1515426635742,-118.448143005371,veSTATION,$$,4.5,91423
6,jX9iFsovc-drcX-1ifzFPQ,34.147726,-118.430464,Orange Delite & Grill,$$,4.5,91423
7,ZRixLjyShJ3ae4pDgvb-5g,34.1499729,-118.4450488,Artful Foods Catering,NA,5.0,91423
8,gNlliTGDX0HX-XzDqXA1dg,34.149048,-118.439201,The Local Peasant - Sherman Oaks,$$,4.0,91423
9,ftCQFHxu2an8d3NyAQLAEg,34.149959,-118.441226,Islands Restaurant,$$,4.0,91423
10,6ZszVZRCVx8itOWSKagt8w,34.15081,-118.43298,L.A. Rasoi,NA,3.0,91423
11,kn3j8JhVPuNSBXh0G5wcTA,34.1478157,-118.4292455,The Coffee Roaster,$,4.5,91423
12,m4gC5k2b6sQISUGR7WuL5Q,34.148567051059,-118.43582299103,Poquito Más,$,4.0,91423
13,fdWIjSsgcMUNsu5YWZvwWw,34.1482985898747,-118.428947280457,Maya's Brigadeiro Brazilian Sweets,$$,5.0,91423
14,H4fM_7dN3-8kiA1jJdOsmQ,34.1482736902139,-118.434121426664,The Poke Haus,$$,4.0,91423
15,57SX3cDWbnY8-MICRShTPw,34.1502805,-118.4456746,Art Rebel,NA,4.5,91423
16,Q6Y7a1KiJ2-UqExAKbLplQ,34.1473283,-118.4263409,Sushi Note,NA,4.5,91423
17,4hhYRAjY2yoLl9jqX-THvQ,34.148193,-118.434041,Sweet Butter Kitchen,$$,3.5,91423
18,taK-D-1XCCV8JkSOUhoixA,34.15063,-118.42159,M Street Coffee,$,4.5,91423
19,ZkDjYWeUfku8JGYhWwemEA,34.14816,-118.43027,Antonio's Pizzeria & Italian Restaurant,$$,4.0,91423
20,v4vZBayS6tGmc2YIEhzhPQ,34.1466959420228,-118.424466982192,Le Petit Restaurant,$$,4.0,91423
21,GUlJZ50fs2nTGvyUTF_4pA,34.151554,-118.4478404,Alcazar Fresh Mediterranean Food,$$,4.5,91423
22,m3_cLHG9KhpWu7NtQC-XCQ,34.14722,-118.42458,Menchie's - Sherman Oaks,$,4.0,91423
23,9eS5_RECGpBtHOgUg8QZMg,34.149226,-118.440793,Leaning Tower Pizza & Pasta,$$,4.5,91423
24,sQvMFqvQrdi2mnWkavf3tA,34.146982,-118.42576,Mistral,$$$,4.5,91423
25,1HfgX6qhtRDg7oIT1e1n5w,34.14719,-118.42438,Wood & Water,$$$,4.0,91423
26,eXgljPZylSRcveqDK_HNuw,34.148148,-118.430145,The Woodman,$$,4.0,91423
27,Qkt6I4Ycys249-SxO9XYHg,34.15068,-118.447233,Nana's Kitchen,NA,5.0,91423
28,mMRSKrB0ParHA-eHimDx2Q,34.14717,-118.42427,Bollywood Bites Indian Restaurant - Sherman Oaks,$$,4.0,91423
29,LtsI9R0Ki1edZqketLEJzA,34.1516815934106,-118.448433169395,Gyu-Kaku Japanese BBQ,$$,4.0,91423
30,L5cStskQULe1LuwzEsZ_5Q,34.1470604,-118.4235992,Nesmon Café,$$,4.0,91423
31,l83hamkeoIpcqUiuWD1XNA,34.1488,-118.43772,Bamboo Cuisine,$$,3.5,91423
32,ERZMXJYLU_7F6jhWxx7Bcg,34.15661,-118.438638,Nekter Juice Bar,$$,4.0,91423
33,DTEA43PAmaL6ff0FZU3fyQ,34.14771,-118.428306,Boneyard Bistro,$$,4.0,91423
34,mdmZGHhykNcRAQjIOHnl0A,34.14691,-118.42276,Casa Vega,$$,3.0,91423
35,eDVHzbiualngGTjTPhqLvw,34.1482691,-118.4338345,Sucheff,$,3.0,91423
36,qqbrT6HJrzrM0Wkw6rlEPA,34.150088,-118.439202,Ralphs,$$,3.5,91423
37,GG_W5BORbu8mQCnSZsk-fw,34.1491857379643,-118.431129232049,Let's Pho,$$,4.0,91423
38,_jsDkvrumcVx54ER0MywAA,34.1508844052384,-118.447094925964,New York Bagel Cafe,$,3.5,91423
39,flLTow1lflutr6VrXR36fg,34.147727,-118.4281637,Starbucks,$,4.0,91423
40,TMW8B0KY2va9u3pSv13pTg,34.1574751,-118.4387833,Sherman Oaks Farmers Market,$$,4.0,91423
41,AswqA-bqhNJWge_gU_S5eQ,34.1487122,-118.4313649,Santino's NY Pizza,$$,4.0,91423
42,yP3h_GwxwLi13v-QMYU1WA,34.1499487943682,-118.430983532524,Big Fish Japanese Cuisine,$$,4.0,91423
43,ZvMFaGjnjSjDgNsomsz9eA,34.1577998144527,-118.44034499706,Farm Boy,$,4.0,91423
44,7rio_T3BIJhmoOA3NiFasQ,34.148886,-118.4356902,Taste of India - Sherman Oaks,$$,4.0,91423
45,9Z5USp6rv3heJgz0tRnglA,34.15001,-118.44533,Marco's Pizza,$$,4.5,91423
46,3f6V2nUv46aEJljqB1VqlQ,34.1579637,-118.4223751,Sugar Babies Bake Shop,$$,4.0,91423
47,GiWyc0TcF9gpr1Zb_7hVBw,34.1510818113715,-118.447761398546,El Torito,$$,4.0,91423
48,a13oHHez-LBWoRQ0TnrXGg,34.1511260451863,-118.446967005729,Brian's Shave Ice & Boba,$,4.0,91423
49,E-1cbKvH1nv9sKxrFIM1bg,34.14875,-118.43381,Te'Kila,$$,4.0,91423
50,Q6c1luL6l-ahzp_xFUEGDA,34.1569367827821,-118.437432582278,Westfield Fashion Square,$$,3.5,91423
51,Vgjtu4xB8Wz0lcbeuE6tSw,34.14801,-118.42935,La Cava,$$$,3.5,91423
52,2d8Z5ko2mT7BVKkxwFQpwQ,34.149409,-118.4410331,MB Chinese Food,$$,3.5,91423
53,IDOPiFAwPRD0vOlIRQJShA,34.1501529858124,-118.431497893254,Ameci Italian Kitchen - Sherman Oaks,$$,3.5,91423
54,MM9a4z4LtAM3P7h89Ny3ng,34.1566234789809,-118.437343910336,Earthbar,$,3.5,91423
55,nfI8MdT99Wd9fsPTIezxdQ,34.15031,-118.44691,Bollywood Indian Restaurant & Banquet,$$,4.0,91423
56,KTJRr_AvGqNjjwunLKT4kw,34.147275,-118.424124,Maria's Italian Kitchen,$$,3.5,91423
57,WiTMRukKmLARoEoKdrV6Qg,34.1463062227897,-118.425396788406,Okamoto Kitchen,$$,4.0,91423
58,X7anCve4yOGNtB_beYYYYQ,34.1489136848808,-118.437908897553,Cafe Bizou,$$,3.5,91423
59,otxbYrH6sOxfNaw1iSi1ag,34.1491954,-118.4407132,Jinky's Cafe - Sherman Oaks,$$,3.5,91423
60,rqEyfQSNMjf76iyv75fYnw,34.1481876818408,-118.431441709399,Petit Trois,$$$,3.5,91423
61,5QG8IRz50iscdgDi-pO56A,34.1574751,-118.4387833,Massis Kabob - The Original Kabobery,$,3.0,91423
62,BYP8KLMhlVa0RKFot4n0jg,34.157973,-118.440837,Trader Joe’s,$$,3.5,91423
63,FIpbwpsCbBHyFXd2v7EB2g,34.1488877,-118.4357052,Midori Sushi,$$,3.5,91423
64,0EVS3HFHfPuLyPDpEuy94g,34.1479811,-118.4294289,Izakaya M,$$,3.5,91423
65,i4DdtaXlbRXxYZ7yS7d74g,34.158099,-118.424344,Starbucks,$,3.5,91423
66,myB5zgec1kLi1iaZFWqv8w,34.164525,-118.4142885,Marcelino's Italian Kitchen,$$,3.5,91423
67,X4wC-UUiJzC_FLmVWKRf4Q,34.15188,-118.45685,Mel's Drive-In,$$,3.0,91423
68,f0c6-u83tDH85GfWLrxSDg,34.164585,-118.414174,Ms Pizza Connection,$$,4.0,91423
69,cujkhTeClQDDmTX6pviNgQ,34.1719802,-118.4216977,Sharky's Woodfired Mexican Grill,$$,4.0,91423
70,LvYwEcrrmnz4WOG9CkbA3g,34.158073,-118.41405,Whole Foods Market,$$$,2.5,91423
